{"type": "FeatureCollection", "features": [{"type": "Feature", "geometry": {"type": "Point", "coordinates": [106.7014913, 10.8227886]}, "properties": {"Address": "Phường 13, Bình Thạnh, Hồ Chí Minh, Việt Nam phường 13, Bình Thạnh, Hồ Chí Minh, Việt Nam", "name": "Quán Nhậu 393 - Gà Đá Hon, Lẩu, Hải Sản"}}, {"type": "Feature", "geometry": {"type": "Point", "coordinates": [106.7003143, 10.7939268]}, "properties": {"Address": "110 Trường Sa Phường 15, Bình Thạnh, Hồ Chí Minh, Việt Nam", "name": "Quán Nhậu 2 Chị Em"}}, {"type": "Feature", "geometry": {"type": "Point", "coordinates": [106.7021437, 10.792571]}, "properties": {"Address": "Hoàng Sa Đa Kao, Quận 1, Hồ Chí Minh, Việt Nam", "name": "Quán Nhậu Hải Sản Kim Oanh"}}, {"type": "Feature", "geometry": {"type": "Point", "coordinates": [106.7156604, 10.8077828]}, "properties": {"Address": "143 Ung Văn Khiêm Phường 25, Bình Thạnh, Hồ Chí Minh, Việt Nam", "name": "Quán Nhậu Lộc Phát"}}, {"type": "Feature", "geometry": {"type": "Point", "coordinates": [106.700508, 10.812924]}, "properties": {"Address": "366 Chu Văn An phường 11, Bình Thạnh, Hồ Chí Minh, Việt Nam", "name": "Quán Nhậu 366"}}, {"type": "Feature", "geometry": {"type": "Point", "coordinates": [106.7045969, 10.7918945]}, "properties": {"Address": "23 Hoàng Sa Đa Kao, Quận 1, Hồ Chí Minh, Việt Nam", "name": "Quán Nhậu 25 HOÀNG SA"}}, {"type": "Feature", "geometry": {"type": "Point", "coordinates": [106.7180538, 10.8069608]}, "properties": {"Address": "115, Đường Ung Văn Khiêm, Quận Bình Thạnh Phường 25, Bình Thạnh, Hồ Chí Minh, Việt Nam", "name": "Quán Nhậu Tư Cua"}}, {"type": "Feature", "geometry": {"type": "Point", "coordinates": [106.7216205, 10.8141111]}, "properties": {"Address": "4 Thanh Đa phường 27, Bình Thạnh, Hồ Chí Minh, Việt Nam", "name": "Quán Nhậu Ngọc Mai"}}, {"type": "Feature", "geometry": {"type": "Point", "coordinates": [106.7146575, 10.8084941]}, "properties": {"Address": "49, Ung Văn Khiêm, Phường 25, Quận Bình Thạnh, Thành Phố Hồ Chí Minh Phường 25, Bình Thạnh, Hồ Chí Minh, Việt Nam", "name": "Quán Nhậu Đêm MAN.UTD"}}, {"type": "Feature", "geometry": {"type": "Point", "coordinates": [106.7353481, 10.7990831]}, "properties": {"Address": "26 Đường số 7 An Phú, Quận 2, Hồ Chí Minh, Việt Nam", "name": "Quán Nhậu Phi Long"}}, {"type": "Feature", "geometry": {"type": "Point", "coordinates": [106.7191905, 10.8068185]}, "properties": {"Address": "146 Ung Văn Khiêm Phường 25, Bình Thạnh, Hồ Chí Minh, Việt Nam", "name": "Quán Nhậu Tôm Tép"}}, {"type": "Feature", "geometry": {"type": "Point", "coordinates": [106.731829, 10.8046633]}, "properties": {"Address": "3 Đường Lê Văn Miến Thảo Điền, Quận 2, Hồ Chí Minh, Việt Nam", "name": "Quán Nhậu Bình Dân"}}, {"type": "Feature", "geometry": {"type": "Point", "coordinates": [106.7172472, 10.8088462]}, "properties": {"Address": "Số 5-6 Đường Nguyễn Gia Trí Phường 25, Bình Thạnh, Hồ Chí Minh, Việt Nam", "name": "Quán nhậu Sài Gòn Nguyên Cua"}}, {"type": "Feature", "geometry": {"type": "Point", "coordinates": [106.7176676, 10.8074002]}, "properties": {"Address": "143/3 Ung Văn Khiêm Phường 25, Bình Thạnh, Hồ Chí Minh, Việt Nam", "name": "Quán Nhậu Tới Bến Quán"}}, {"type": "Feature", "geometry": {"type": "Point", "coordinates": [106.7210573, 10.8151913]}, "properties": {"Address": "3 Thanh Đa phường 27, Bình Thạnh, Hồ Chí Minh, Việt Nam", "name": "Quán Nhậu Ngọc Quý"}}, {"type": "Feature", "geometry": {"type": "Point", "coordinates": [106.7063997, 10.8116547]}, "properties": {"Address": "Phường 26, Bình Thạnh, Hồ Chí Minh, Việt Nam phường 26, Bình Thạnh, Hồ Chí Minh, Việt Nam", "name": "Quán Nhậu Thảo Sương"}}, {"type": "Feature", "geometry": {"type": "Point", "coordinates": [106.7042505, 10.8194803]}, "properties": {"Address": "294 Nguyễn Xí phường 13, Bình Thạnh, Hồ Chí Minh, Việt Nam", "name": "Quán Nhậu Dâu Tây"}}, {"type": "Feature", "geometry": {"type": "Point", "coordinates": [106.7236536, 10.8168774]}, "properties": {"Address": "149 Đường Bình Quới phường 27, Bình Thạnh, Hồ Chí Minh, Việt Nam", "name": "Quán Nhậu Tư Sơn Quán"}}, {"type": "Feature", "geometry": {"type": "Point", "coordinates": [106.720864, 10.804634]}, "properties": {"Address": "57 Ung Văn Khiêm Phường 25, Bình Thạnh, Hồ Chí Minh, Việt Nam", "name": "Quán Nhậu THUỲ LINN"}}, {"type": "Feature", "geometry": {"type": "Point", "coordinates": [106.6978364, 10.8069379]}, "properties": {"Address": "17 Phan Văn Trị phường 12, Bình Thạnh, Hồ Chí Minh, Việt Nam", "name": "Quán nhậu Hùng Bạch Tuộc"}}, {"type": "Feature", "geometry": {"type": "Point", "coordinates": [106.7014913, 10.8227886]}, "properties": {"Address": "Phường 13, Bình Thạnh, Hồ Chí Minh, Việt Nam phường 13, Bình Thạnh, Hồ Chí Minh, Việt Nam", "name": "Quán Nhậu 393 - Gà Đá Hon, Lẩu, Hải Sản"}}, {"type": "Feature", "geometry": {"type": "Point", "coordinates": [106.7003143, 10.7939268]}, "properties": {"Address": "110 Trường Sa Phường 15, Bình Thạnh, Hồ Chí Minh, Việt Nam", "name": "Quán Nhậu 2 Chị Em"}}, {"type": "Feature", "geometry": {"type": "Point", "coordinates": [106.7021437, 10.792571]}, "properties": {"Address": "Hoàng Sa Đa Kao, Quận 1, Hồ Chí Minh, Việt Nam", "name": "Quán Nhậu Hải Sản Kim Oanh"}}, {"type": "Feature", "geometry": {"type": "Point", "coordinates": [106.7156604, 10.8077828]}, "properties": {"Address": "143 Ung Văn Khiêm Phường 25, Bình Thạnh, Hồ Chí Minh, Việt Nam", "name": "Quán Nhậu Lộc Phát"}}, {"type": "Feature", "geometry": {"type": "Point", "coordinates": [106.700508, 10.812924]}, "properties": {"Address": "366 Chu Văn An phường 11, Bình Thạnh, Hồ Chí Minh, Việt Nam", "name": "Quán Nhậu 366"}}, {"type": "Feature", "geometry": {"type": "Point", "coordinates": [106.7045969, 10.7918945]}, "properties": {"Address": "23 Hoàng Sa Đa Kao, Quận 1, Hồ Chí Minh, Việt Nam", "name": "Quán Nhậu 25 HOÀNG SA"}}, {"type": "Feature", "geometry": {"type": "Point", "coordinates": [106.7180538, 10.8069608]}, "properties": {"Address": "115, Đường Ung Văn Khiêm, Quận Bình Thạnh Phường 25, Bình Thạnh, Hồ Chí Minh, Việt Nam", "name": "Quán Nhậu Tư Cua"}}, {"type": "Feature", "geometry": {"type": "Point", "coordinates": [106.7216205, 10.8141111]}, "properties": {"Address": "4 Thanh Đa phường 27, Bình Thạnh, Hồ Chí Minh, Việt Nam", "name": "Quán Nhậu Ngọc Mai"}}, {"type": "Feature", "geometry": {"type": "Point", "coordinates": [106.7146575, 10.8084941]}, "properties": {"Address": "49, Ung Văn Khiêm, Phường 25, Quận Bình Thạnh, Thành Phố Hồ Chí Minh Phường 25, Bình Thạnh, Hồ Chí Minh, Việt Nam", "name": "Quán Nhậu Đêm MAN.UTD"}}, {"type": "Feature", "geometry": {"type": "Point", "coordinates": [106.7353481, 10.7990831]}, "properties": {"Address": "26 Đường số 7 An Phú, Quận 2, Hồ Chí Minh, Việt Nam", "name": "Quán Nhậu Phi Long"}}, {"type": "Feature", "geometry": {"type": "Point", "coordinates": [106.7191905, 10.8068185]}, "properties": {"Address": "146 Ung Văn Khiêm Phường 25, Bình Thạnh, Hồ Chí Minh, Việt Nam", "name": "Quán Nhậu Tôm Tép"}}, {"type": "Feature", "geometry": {"type": "Point", "coordinates": [106.731829, 10.8046633]}, "properties": {"Address": "3 Đường Lê Văn Miến Thảo Điền, Quận 2, Hồ Chí Minh, Việt Nam", "name": "Quán Nhậu Bình Dân"}}, {"type": "Feature", "geometry": {"type": "Point", "coordinates": [106.7172472, 10.8088462]}, "properties": {"Address": "Số 5-6 Đường Nguyễn Gia Trí Phường 25, Bình Thạnh, Hồ Chí Minh, Việt Nam", "name": "Quán nhậu Sài Gòn Nguyên Cua"}}, {"type": "Feature", "geometry": {"type": "Point", "coordinates": [106.7176676, 10.8074002]}, "properties": {"Address": "143/3 Ung Văn Khiêm Phường 25, Bình Thạnh, Hồ Chí Minh, Việt Nam", "name": "Quán Nhậu Tới Bến Quán"}}, {"type": "Feature", "geometry": {"type": "Point", "coordinates": [106.7210573, 10.8151913]}, "properties": {"Address": "3 Thanh Đa phường 27, Bình Thạnh, Hồ Chí Minh, Việt Nam", "name": "Quán Nhậu Ngọc Quý"}}, {"type": "Feature", "geometry": {"type": "Point", "coordinates": [106.7063997, 10.8116547]}, "properties": {"Address": "Phường 26, Bình Thạnh, Hồ Chí Minh, Việt Nam phường 26, Bình Thạnh, Hồ Chí Minh, Việt Nam", "name": "Quán Nhậu Thảo Sương"}}, {"type": "Feature", "geometry": {"type": "Point", "coordinates": [106.7042505, 10.8194803]}, "properties": {"Address": "294 Nguyễn Xí phường 13, Bình Thạnh, Hồ Chí Minh, Việt Nam", "name": "Quán Nhậu Dâu Tây"}}, {"type": "Feature", "geometry": {"type": "Point", "coordinates": [106.7236536, 10.8168774]}, "properties": {"Address": "149 Đường Bình Quới phường 27, Bình Thạnh, Hồ Chí Minh, Việt Nam", "name": "Quán Nhậu Tư Sơn Quán"}}, {"type": "Feature", "geometry": {"type": "Point", "coordinates": [106.720864, 10.804634]}, "properties": {"Address": "57 Ung Văn Khiêm Phường 25, Bình Thạnh, Hồ Chí Minh, Việt Nam", "name": "Quán Nhậu THUỲ LINN"}}, {"type": "Feature", "geometry": {"type": "Point", "coordinates": [106.6978364, 10.8069379]}, "properties": {"Address": "17 Phan Văn Trị phường 12, Bình Thạnh, Hồ Chí Minh, Việt Nam", "name": "Quán nhậu Hùng Bạch Tuộc"}}, {"type": "Feature", "geometry": {"type": "Point", "coordinates": [106.7014913, 10.8227886]}, "properties": {"Address": "Phường 13, Bình Thạnh, Hồ Chí Minh, Việt Nam phường 13, Bình Thạnh, Hồ Chí Minh, Việt Nam", "name": "Quán Nhậu 393 - Gà Đá Hon, Lẩu, Hải Sản"}}, {"type": "Feature", "geometry": {"type": "Point", "coordinates": [106.7003143, 10.7939268]}, "properties": {"Address": "110 Trường Sa Phường 15, Bình Thạnh, Hồ Chí Minh, Việt Nam", "name": "Quán Nhậu 2 Chị Em"}}, {"type": "Feature", "geometry": {"type": "Point", "coordinates": [106.7021437, 10.792571]}, "properties": {"Address": "Hoàng Sa Đa Kao, Quận 1, Hồ Chí Minh, Việt Nam", "name": "Quán Nhậu Hải Sản Kim Oanh"}}, {"type": "Feature", "geometry": {"type": "Point", "coordinates": [106.7156604, 10.8077828]}, "properties": {"Address": "143 Ung Văn Khiêm Phường 25, Bình Thạnh, Hồ Chí Minh, Việt Nam", "name": "Quán Nhậu Lộc Phát"}}, {"type": "Feature", "geometry": {"type": "Point", "coordinates": [106.700508, 10.812924]}, "properties": {"Address": "366 Chu Văn An phường 11, Bình Thạnh, Hồ Chí Minh, Việt Nam", "name": "Quán Nhậu 366"}}, {"type": "Feature", "geometry": {"type": "Point", "coordinates": [106.7045969, 10.7918945]}, "properties": {"Address": "23 Hoàng Sa Đa Kao, Quận 1, Hồ Chí Minh, Việt Nam", "name": "Quán Nhậu 25 HOÀNG SA"}}, {"type": "Feature", "geometry": {"type": "Point", "coordinates": [106.7180538, 10.8069608]}, "properties": {"Address": "115, Đường Ung Văn Khiêm, Quận Bình Thạnh Phường 25, Bình Thạnh, Hồ Chí Minh, Việt Nam", "name": "Quán Nhậu Tư Cua"}}, {"type": "Feature", "geometry": {"type": "Point", "coordinates": [106.7216205, 10.8141111]}, "properties": {"Address": "4 Thanh Đa phường 27, Bình Thạnh, Hồ Chí Minh, Việt Nam", "name": "Quán Nhậu Ngọc Mai"}}, {"type": "Feature", "geometry": {"type": "Point", "coordinates": [106.7146575, 10.8084941]}, "properties": {"Address": "49, Ung Văn Khiêm, Phường 25, Quận Bình Thạnh, Thành Phố Hồ Chí Minh Phường 25, Bình Thạnh, Hồ Chí Minh, Việt Nam", "name": "Quán Nhậu Đêm MAN.UTD"}}, {"type": "Feature", "geometry": {"type": "Point", "coordinates": [106.7353481, 10.7990831]}, "properties": {"Address": "26 Đường số 7 An Phú, Quận 2, Hồ Chí Minh, Việt Nam", "name": "Quán Nhậu Phi Long"}}]}